City_ID,City,Lat,Lng,Max Temp,Humidity,Cloudiness,Wind Speed,Country,Date
0,adamstown,-25.066,-130.1015,25.48,74,69,2.58,PN,1739146040
1,edinburgh of the seven seas,-37.0676,-12.3116,15.82,75,7,4.13,SH,1739146039
2,east ballina,-28.8667,153.5833,26.51,59,27,4.2,AU,1739146104
3,margaret river,-33.95,115.0667,21.18,75,88,4.5,AU,1739146105
4,massawa,15.6097,39.45,24.22,76,83,3.16,ER,1739146106
5,dehui,44.5333,125.7,-18.89,89,11,3.32,CN,1739146107
6,jamestown,42.097,-79.2353,-3.88,90,100,3.13,US,1739146108
7,kapuskasing,49.4169,-82.4331,-20.64,99,100,1.19,CA,1739146109
8,port-aux-francais,-49.35,70.2167,7.89,96,80,14.94,TF,1739146110
9,waitangi,-43.9535,-176.5597,17.68,89,35,2.68,NZ,1739146112
10,crane,31.3974,-102.3501,12.62,56,86,7.09,US,1739146113
11,san patricio,28.017,-97.5169,23.97,77,0,4.79,US,1739146114
12,puerto ayora,-0.7393,-90.3518,25.86,93,98,0.89,EC,1739146115
13,champerico,14.3,-91.9167,28.5,66,28,3.47,GT,1739146116
14,cabo san lucas,22.8909,-109.9124,25.17,25,0,2.57,MX,1739146117
15,lebu,-37.6167,-73.65,17.0,88,85,6.01,CL,1739146118
16,enewetak,11.3474,162.3373,27.11,78,48,8.5,MH,1739146119
17,talnakh,69.4865,88.3972,-19.56,100,99,2.99,RU,1739146120
18,revda,56.801,59.9303,-9.0,92,20,3.84,RU,1739146121
19,anna regina,7.2644,-58.5077,24.04,89,71,3.73,GY,1739146122
20,college,64.8569,-147.8028,-8.64,73,2,0.61,US,1739146123
21,st. john's,47.5649,-52.7093,-2.79,92,100,4.12,CA,1739146005
22,albany,42.6001,-73.9662,-8.13,92,47,1.89,US,1739146000
23,longyearbyen,78.2186,15.6401,-7.09,58,40,5.14,SJ,1739146115
24,udachny,66.4167,112.4,-25.88,99,93,2.64,RU,1739145857
25,puerto natales,-51.7236,-72.4875,9.33,76,93,0.68,CL,1739146129
26,ebaye,8.7748,167.7392,29.01,79,40,2.57,MH,1739146130
27,ketchikan,55.3422,-131.6461,1.26,64,75,2.57,US,1739146131
28,namanga,-2.5433,36.7905,20.12,72,61,2.58,KE,1739146132
29,aswan,24.0934,32.907,14.75,42,74,6.34,EG,1739146133
30,ust-nera,64.5667,143.2,-40.73,98,76,1.32,RU,1739146134
31,santa cruz de tenerife,28.4682,-16.2546,15.44,85,0,4.12,ES,1739146135
32,rio grande,-32.035,-52.0986,23.91,84,0,4.01,BR,1739146138
33,hithadhoo,-0.6,73.0833,27.15,77,15,4.04,MV,1739146139
34,portland,45.5234,-122.6762,7.27,71,100,0.89,US,1739145979
35,la passe,45.5549,-0.8967,9.41,97,99,3.08,FR,1739146142
36,kuching,1.55,110.3333,25.57,99,40,1.54,MY,1739145990
37,susuman,62.7833,148.1667,-41.55,99,81,0.28,RU,1739146144
38,hadibu,12.65,54.0333,23.57,79,34,3.1,YE,1739146146
39,la'ie,21.6477,-157.9253,28.36,71,37,2.68,US,1739146148
40,puerto maldonado,-12.6,-69.1833,24.22,94,0,1.03,PE,1739146149
41,constitucion,-35.3333,-72.4167,15.97,96,6,3.15,CL,1739146150
42,howard springs,-12.497,131.047,29.95,84,100,2.6,AU,1739146151
43,carutapera,-1.195,-46.02,24.15,94,100,2.78,BR,1739146152
44,villa gesell,-37.2639,-56.973,18.26,70,58,6.71,AR,1739145976
45,adrasmon,40.6472,69.9856,-0.66,69,99,3.23,TJ,1739146154
46,bethel,41.3712,-73.414,-0.61,97,70,1.09,US,1739146156
47,hammerfest,70.6634,23.6821,1.25,75,40,7.2,NO,1739146157
48,ataq,14.5377,46.8319,17.35,81,7,2.9,YE,1739146159
49,tiksi,71.6872,128.8694,-26.97,97,91,3.04,RU,1739146160
50,matoury,4.8483,-52.3317,25.98,89,20,1.54,GF,1739146161
51,bani walid,31.7566,13.9942,11.63,80,45,1.99,LY,1739146161
52,wailua homesteads,22.0669,-159.378,25.63,64,0,3.09,US,1739146164
53,dudinka,69.4058,86.1778,-13.88,97,100,4.16,RU,1739146165
54,yellowknife,62.456,-114.3525,-26.36,86,55,1.79,CA,1739146166
55,monrovia,6.3005,-10.7969,26.58,90,46,3.25,LR,1739146167
56,tazovsky,67.4667,78.7,-4.1,94,100,7.91,RU,1739146168
57,calliope,-24.0,151.2,30.94,65,75,7.2,AU,1739146169
58,vadso,70.0744,29.7487,0.09,80,20,13.38,NO,1739146170
59,dawei,14.0833,98.2,19.16,69,23,2.57,MM,1739146171
60,ar raqqah,35.95,39.0167,7.8,50,26,3.11,SY,1739146173
61,bredasdorp,-34.5322,20.0403,18.59,56,82,4.56,ZA,1739146174
62,avarua,-21.2078,-159.775,29.03,84,40,2.57,CK,1739146176
63,pisco,-13.7,-76.2167,24.03,83,95,6.69,PE,1739146177
64,lihue,21.9789,-159.3672,25.97,61,0,3.09,US,1739146178
65,makubetsu,45.3714,141.8211,-3.16,80,75,6.69,JP,1739146179
66,iqaluit,63.7506,-68.5145,-22.95,63,100,4.47,CA,1739146180
67,papatowai,-46.5619,169.4708,14.09,67,84,3.21,NZ,1739146181
68,isiro,2.7739,27.616,20.72,50,72,1.83,CD,1739146182
69,uturoa,-16.7333,-151.4333,27.93,68,2,2.71,PF,1739146183
70,bilibino,68.0546,166.4372,-22.65,97,100,0.55,RU,1739146184
71,stockstadt am rhein,49.8094,8.4728,2.31,85,99,1.6,DE,1739146185
72,nemuro,43.3236,145.575,-2.6,75,84,6.41,JP,1739146187
73,mersa matruh,31.3525,27.2453,13.04,64,68,5.31,EG,1739146188
74,touros,-5.1989,-35.4608,26.74,74,86,6.05,BR,1739146123
75,kismayo,-0.3582,42.5454,24.53,87,31,5.5,SO,1739146190
76,invercargill,-46.4,168.35,16.12,64,92,3.13,NZ,1739146191
77,fale old settlement,-9.3852,-171.2468,28.73,72,100,5.21,TK,1739146026
78,grytviken,-54.2811,-36.5092,2.15,79,30,3.54,GS,1739146194
79,chui,-33.6971,-53.4616,22.18,83,31,4.54,UY,1739146196
80,whistler,50.1164,-122.9695,-2.68,67,3,0.69,CA,1739146197
81,nguigmi,14.2495,13.1092,22.33,19,16,5.08,NE,1739146198
82,magadan,59.5667,150.8,-24.72,80,1,3.2,RU,1739146199
83,vilhena,-12.7406,-60.1458,23.12,88,40,2.06,BR,1739145905
84,whitehorse,60.7161,-135.0538,-14.95,84,40,2.57,CA,1739146201
85,constantia,44.1833,28.65,-3.5,68,93,6.08,RO,1739146202
86,bukama,-9.2,25.85,20.65,92,100,0.63,CD,1739146203
87,lhasa,29.65,91.1,-6.6,28,0,1.43,CN,1739146204
88,batticaloa,7.7102,81.6924,24.87,73,89,2.65,LK,1739145975
89,labrador city,52.9463,-66.9114,-30.91,100,93,1.45,CA,1739146207
90,blackmans bay,-43.0167,147.3167,17.63,56,83,0.89,AU,1739146208
91,west island,-12.1568,96.8225,27.99,83,40,9.26,CC,1739146209
92,sao joao da barra,-21.6403,-41.0511,24.95,87,88,3.42,BR,1739146006
93,san antonio de pale,-1.4014,5.6325,27.42,80,100,1.92,GQ,1739146211
94,tarko-sale,64.9225,77.785,-3.75,96,100,6.07,RU,1739146212
95,bozoum,6.3193,16.3799,26.33,39,97,1.01,CF,1739145914
96,vilyuchinsk,52.9306,158.4028,-0.85,70,77,1.84,RU,1739146214
97,arraial do cabo,-22.9661,-42.0278,24.33,88,49,5.47,BR,1739146165
98,port elizabeth,-33.918,25.5701,19.06,93,89,0.45,ZA,1739146217
99,ushuaia,-54.8,-68.3,6.2,91,51,1.53,AR,1739146032
100,faya-largeau,17.9257,19.1043,22.25,18,0,7.89,TD,1739146219
101,armacao de buzios,-22.7469,-41.8817,24.26,88,54,5.15,BR,1739146089
102,ryotsu-minato,38.0833,138.4333,2.1,62,94,7.76,JP,1739146221
103,umag,45.4314,13.5239,7.96,93,100,2.57,HR,1739146223
104,sirvintos,55.05,24.95,-5.81,87,6,2.02,LT,1739146224
105,shalqar,47.8333,59.6,-12.24,86,33,4.73,KZ,1739146225
106,wenchang,30.904,118.4887,1.08,38,63,1.57,CN,1739146226
107,luderitz,-26.6481,15.1594,17.39,70,0,10.51,NA,1739146227
108,hasaki,35.7333,140.8333,5.8,38,97,3.08,JP,1739146229
109,ancud,-41.8697,-73.8203,16.55,94,65,6.98,CL,1739146230
110,san luis de la loma,17.2706,-100.8939,28.24,60,1,4.16,MX,1739146231
111,bubaque,11.2833,-15.8333,24.19,77,60,6.18,GW,1739146232
112,as sulayyil,20.4607,45.5779,13.78,36,0,3.93,SA,1739146233
113,limon,10.0,-83.0333,25.75,80,95,1.41,CR,1739146234
114,derzhavinsk,51.1,66.3167,-15.61,97,23,2.34,KZ,1739146235
115,boguchar,49.9358,40.545,-9.18,92,58,2.13,RU,1739146237
116,georgetown,5.4112,100.3354,26.96,65,20,3.6,MY,1739146238
117,santa cruz,-17.8,-63.1667,25.7,89,75,1.03,BO,1739146240
118,olonkinbyen,70.9221,-8.7187,-1.55,89,100,12.38,SJ,1739146242
119,necochea,-38.5473,-58.7368,19.04,59,90,8.18,AR,1739146243
120,port mathurin,-19.6833,63.4167,27.3,83,71,4.79,MU,1739146244
121,georgiyevka,43.0369,74.7114,-3.98,100,40,2.0,KZ,1739146247
122,dunedin,-45.8742,170.5036,14.33,89,100,1.79,NZ,1739146248
123,ad dawadimi,24.5077,44.3924,9.64,37,6,5.89,SA,1739146249
124,south sioux city,42.4739,-96.4136,-1.03,51,0,2.57,US,1739146250
125,marsh harbour,26.5412,-77.0636,23.16,79,58,3.88,BS,1739146251
126,golfito,8.639,-83.166,22.64,90,100,0.78,CR,1739146252
127,uliastay,47.7417,96.8444,-14.75,98,100,1.69,MN,1739146253
128,ceeldheer,3.8488,47.1806,23.4,88,93,5.14,SO,1739146254
129,luanda,-8.8368,13.2343,26.42,85,95,3.0,AO,1739145979
130,mount isa,-20.7333,139.5,26.87,78,100,3.6,AU,1739146256
131,nova sintra,14.8667,-24.7167,21.52,77,43,7.43,CV,1739146257
132,hobyo,5.3505,48.5268,24.36,91,96,4.79,SO,1739146259
133,aasiaat,68.7098,-52.8699,-21.72,97,100,3.29,GL,1739146260
134,saldanha,-33.0117,17.9442,17.42,77,0,8.24,ZA,1739146261
135,gadzhiyevo,69.2551,33.3362,-4.1,85,24,13.5,RU,1739146262
136,broome,42.2506,-75.833,-2.79,80,100,5.14,US,1739146263
137,saipan,15.1355,145.701,29.39,78,100,7.2,MP,1739146264
138,coxen hole,16.3244,-86.5366,25.3,87,97,7.99,HN,1739146168
139,yinzhu,35.8786,119.9753,-1.45,34,0,2.11,CN,1739146266
140,lazaro cardenas,17.9583,-102.2,28.36,57,0,4.77,MX,1739146193
141,queenstown,-31.8976,26.8753,14.82,88,100,2.61,ZA,1739146268
142,punta arenas,-53.15,-70.9167,13.06,54,75,4.12,CL,1739146269
143,inowroclaw,52.7989,18.2639,-0.6,81,91,3.49,PL,1739146270
144,tottori,35.5,134.2333,3.15,70,64,3.36,JP,1739146272
145,eyl,7.9803,49.8164,22.53,84,44,4.65,SO,1739146273
146,kodiak,57.79,-152.4072,3.73,93,100,12.86,US,1739146274
147,vila franca do campo,37.7167,-25.4333,15.23,88,79,9.28,PT,1739146275
148,ampara,7.2833,81.6667,23.32,74,89,2.19,LK,1739146276
149,mount pearl,47.5166,-52.7813,-3.25,93,100,4.12,CA,1739146277
150,tanjung pandan,-2.75,107.65,26.61,81,99,5.06,ID,1739146278
151,kargasok,59.0556,80.8572,-6.96,95,46,3.63,RU,1739146279
152,pauini,-7.7136,-66.9764,23.67,97,84,0.85,BR,1739146280
153,kalianget,-7.05,113.9333,26.02,83,100,5.95,ID,1739146094
154,pleasant hill,37.948,-122.0608,14.79,42,0,2.06,US,1739146221
155,badger,64.8,-147.5333,-8.69,85,4,0.18,US,1739146285
156,alofi,-19.0595,-169.9187,29.94,74,75,5.14,NU,1739146286
157,masterton,-40.9597,175.6575,21.54,57,96,2.1,NZ,1739146288
158,taulaga,-11.0553,-171.0883,28.75,73,39,5.65,AS,1739146290
159,puerto baquerizo moreno,-0.9,-89.6,25.46,77,65,2.51,EC,1739146291
160,lata,40.1629,-8.3327,9.24,95,97,1.25,PT,1739146292
161,walvis bay,-22.9575,14.5053,18.07,78,50,5.21,NA,1739146293
162,solleftea,63.1667,17.2667,-12.08,88,56,2.56,SE,1739146294
163,kapa'a,22.0752,-159.319,26.38,64,0,3.09,US,1739146295
164,guerrero negro,27.9769,-114.0611,17.75,67,59,6.32,MX,1739146296
165,kirakira,-10.4544,161.9205,29.48,71,99,4.3,SB,1739146297
166,agat village,13.3886,144.6585,28.75,82,42,2.24,GU,1739146298
167,topeka,39.0483,-95.678,1.94,47,0,2.06,US,1739146299
168,yorkton,51.2167,-102.4677,-19.43,90,100,4.86,CA,1739146300
169,kitimat,54.0524,-128.6534,-1.28,60,12,0.99,CA,1739146302
170,ad dilam,23.9915,47.1627,10.62,44,3,1.26,SA,1739146303
171,ingeniero jacobacci,-41.3427,-69.5448,27.29,15,48,9.42,AR,1739146305
172,fuerte olimpo,-21.0415,-57.8738,28.76,47,48,2.14,PY,1739146306
173,holualoa,19.6228,-155.9522,24.91,70,40,4.63,US,1739146189
174,sarikei,2.1167,111.5167,23.54,98,78,0.18,MY,1739146308
175,fort bragg,35.139,-79.006,19.91,54,75,3.6,US,1739146309
176,senirkent,38.1044,30.5486,-1.81,89,15,2.75,TR,1739146310
177,vorgashor,67.5833,63.95,-6.78,94,100,7.82,RU,1739146311
178,iturama,-19.7281,-50.1956,20.19,91,99,2.06,BR,1739146312
179,khandyga,62.6667,135.6,-42.41,100,78,0.96,RU,1739146313
180,mata-utu,-13.2816,-176.1745,29.06,74,54,5.85,WF,1739146314
181,kota kinabalu,5.9749,116.0724,26.6,89,20,3.58,MY,1739146316
182,palmares do sul,-30.2578,-50.5097,23.25,90,9,3.47,BR,1739146318
183,torghay,49.6339,63.4981,-12.6,87,5,4.78,KZ,1739146319
184,viedma,-40.8135,-62.9967,19.61,67,6,7.92,AR,1739146320
185,ribeira grande,38.5167,-28.7,13.76,82,75,6.69,PT,1739146321
186,buala,-8.145,159.5921,29.11,69,80,2.86,SB,1739146322
187,arteche,12.2645,125.4048,24.32,95,100,5.22,PH,1739146323
188,tofol,5.3248,163.0078,28.88,79,75,1.54,FM,1739146324
189,kalmunai,7.4167,81.8167,25.09,70,91,2.65,LK,1739146160
190,gwanda,-20.9333,29.0,20.91,93,100,2.59,ZW,1739146326
191,bay roberts,47.5999,-53.2648,-3.3,91,100,3.13,CA,1739146227
192,mariveles,14.4833,120.4833,18.96,80,75,8.64,PH,1739146328
193,tura,25.5198,90.2201,12.65,47,0,1.45,IN,1739146329
194,broken hill,-31.95,141.4333,29.36,18,0,6.06,AU,1739146331
195,ciudad bolivar,8.1222,-63.5497,28.85,54,88,6.75,VE,1739146080
196,stanley,54.868,-1.6985,3.01,90,75,5.14,GB,1739146334
197,remire-montjoly,4.9167,-52.2667,26.02,89,20,1.54,GF,1739146335
198,ierapetra,35.01,25.7353,9.52,65,4,6.71,GR,1739146336
199,ilulissat,69.2167,-51.1,-14.99,78,75,6.69,GL,1739146338
200,sao vicente,-23.9631,-46.3919,26.66,26,12,2.4,BR,1739146289
201,thompson,55.7435,-97.8558,-22.88,93,100,3.2,CA,1739146341
202,silifke,36.3778,33.9344,8.89,59,33,5.07,TR,1739146237
203,sola,-13.8833,167.55,27.98,70,78,2.72,VU,1739146344
204,nova xavantina,-14.6667,-52.35,22.09,96,60,2.91,BR,1739146345
205,tari,-11.1105,14.3559,18.9,92,74,1.15,AO,1739146346
206,bangui,4.3612,18.555,23.97,48,52,0.92,CF,1739146347
207,zhezqazghan,47.7833,67.7667,-12.58,84,3,5.01,KZ,1739146348
208,myanaung,18.2833,95.3167,19.67,54,14,0.64,MM,1739146349
209,miyako,39.6367,141.9525,0.55,49,35,1.87,JP,1739146351
210,port alfred,-33.5906,26.891,18.43,98,99,3.89,ZA,1739146352
211,ati,13.2154,18.3353,23.22,13,14,4.98,TD,1739146353
212,yokohama,35.4478,139.6425,4.99,45,20,2.06,JP,1739145638
213,argo,37.6333,22.7333,3.54,71,9,1.8,GR,1739146151
214,magomeni,-6.8,39.25,26.28,83,67,2.55,TZ,1739146357
215,sungai raya,0.7,108.9,25.25,88,93,3.61,ID,1739146359
216,petropavlovsk-kamchatsky,53.0452,158.6483,-1.67,47,75,1.0,RU,1739146245
217,pio duran,13.0293,123.445,24.86,90,100,7.59,PH,1739146361
218,uige,-7.6087,15.0613,20.91,95,100,0.6,AO,1739146362
219,wynyard,-41.0,145.7167,19.55,46,1,4.47,AU,1739146364
220,flying fish cove,-10.4217,105.6791,25.82,94,40,2.57,CX,1739146366
221,warrnambool,-38.3833,142.4833,19.3,75,100,7.35,AU,1739146367
222,klaksvik,62.2266,-6.589,5.72,78,73,4.5,FO,1739146368
223,kovernino,57.1253,43.8142,-10.01,100,86,1.12,RU,1739146369
224,trenggalek,-8.05,111.7167,25.11,86,100,1.17,ID,1739146370
225,iskateley,67.6803,53.1512,-5.09,89,100,8.21,RU,1739146025
226,keflavik,64.0049,-22.5624,6.24,100,100,11.32,IS,1739146372
227,teguise,29.0605,-13.564,12.12,72,20,1.54,ES,1739146374
228,vernon,50.2581,-119.2691,-5.14,61,54,0.89,CA,1739146375
229,chimoio,-19.1164,33.4833,20.81,98,81,0.6,MZ,1739146376
230,newman,37.3138,-121.0208,13.36,39,1,4.47,US,1739146377
231,archangelos,36.2149,28.1149,9.06,65,1,2.89,GR,1739146378
232,luba,3.4568,8.5547,27.32,85,87,3.66,GQ,1739146379
233,pola de lena,43.1609,-5.8288,10.47,90,100,2.04,ES,1739146381
234,nuku'alofa,-21.1333,-175.2,27.95,76,100,5.03,TO,1739146383
235,kushk,33.2957,61.9522,4.1,80,97,2.43,AF,1739146384
236,san ignacio,17.1561,-89.0714,26.08,83,75,0.0,BZ,1739146385
237,nyurba,63.2842,118.3319,-32.74,98,99,1.58,RU,1739146389
238,flin flon,54.7682,-101.865,-20.91,95,100,2.48,CA,1739146390
239,isafjordur,66.0755,-23.124,0.8,99,100,1.88,IS,1739146391
240,maceio,-9.6658,-35.7353,25.69,100,20,1.54,BR,1739146346
241,skovorodino,53.9833,123.9167,-23.63,98,100,0.57,RU,1739146393
242,kill devil hills,36.0307,-75.676,7.77,70,75,5.66,US,1739146395
243,labytnangi,66.6572,66.4183,-8.73,85,100,4.69,RU,1739146397
244,hermanus,-34.4187,19.2345,17.11,64,12,5.64,ZA,1739146398
245,carnarvon,-24.8667,113.6333,25.17,69,92,8.57,AU,1739146399
246,middelburg,-25.7751,29.4648,18.53,80,29,4.58,ZA,1739146401
247,zaozersk,69.4005,32.4476,-4.41,83,43,12.79,RU,1739146403
248,paithan,19.4833,75.3833,23.37,47,4,0.87,IN,1739146404
249,chul'man,56.8479,124.9104,-36.82,99,99,0.4,RU,1739146405
250,valparaiso,-33.0393,-71.6273,20.26,77,0,1.54,CL,1739146237
251,auki,-8.7676,160.7034,30.69,58,87,1.36,SB,1739146407
252,laguna,38.421,-121.4238,13.95,47,0,6.17,US,1739146408
253,ola,59.5833,151.2833,-23.85,84,13,3.93,RU,1739146409
254,ust'-ilimsk,58.0006,102.6619,-13.7,94,100,3.74,RU,1739146410
255,hailin,44.5833,129.4167,-18.47,93,24,1.26,CN,1739146411
256,geraldton,-28.7667,114.6,23.23,60,100,1.54,AU,1739146412
257,juegang,32.3174,121.1855,0.18,38,92,2.7,CN,1739146415
258,manokwari,-0.8667,134.0833,28.21,67,100,2.74,ID,1739146416
259,lompoc,34.6391,-120.4579,15.85,51,0,9.26,US,1739146417
260,praia da vitoria,38.7333,-27.0667,14.14,87,43,10.4,PT,1739146418
261,bayanhongor,46.7167,100.1167,-23.53,84,100,0.7,MN,1739146419
262,peace river,56.2501,-117.286,-21.04,86,98,2.64,CA,1739146194
263,longgang,37.6508,120.3286,-3.32,35,0,5.25,CN,1739146423
264,anadyr,64.75,177.4833,-3.72,86,75,9.0,RU,1739146424
265,saudarkrokur,65.7461,-19.6394,4.51,85,99,10.49,IS,1739146425
266,al bardiyah,31.7561,25.0865,12.66,60,71,4.9,LY,1739146426
267,lagunas,-5.2269,-75.6753,27.49,73,89,1.47,PE,1739146428
268,tromso,69.6496,18.957,1.01,75,100,2.06,NO,1739146413
269,tangalle,6.024,80.7911,22.0,78,96,4.67,LK,1739146431
270,asau,46.4333,26.4,-7.41,74,2,1.42,RO,1739146432
271,astrakhan,46.3497,48.0408,-9.07,86,0,3.0,RU,1739146433
272,petrolina,-9.3986,-40.5008,25.03,78,0,0.0,BR,1739146292
273,tabou,4.423,-7.3528,26.6,85,100,2.31,CI,1739146035
274,hauterive,46.0901,3.4459,5.5,84,100,1.15,FR,1739146436
275,borogontsy,62.6683,131.1683,-34.91,98,100,1.67,RU,1739146437
276,bikenibeu village,1.3673,173.1241,29.98,70,40,6.69,KI,1739146438
277,eraan,9.0629,117.7016,25.55,88,100,2.83,PH,1739146439
278,perez,-32.9983,-60.7679,31.06,60,9,1.34,AR,1739146440
279,salinas,36.6777,-121.6555,13.79,61,0,5.66,US,1739146423
280,zeya,53.75,127.2667,-19.3,91,100,0.56,RU,1739146442
281,klyuchi,52.2667,79.1667,-11.57,97,98,3.79,RU,1739146443
282,isna,25.2934,32.554,14.27,45,100,5.01,EG,1739146445
283,isangel,-19.55,169.2667,27.69,79,100,2.48,VU,1739146446
284,east london,-33.0153,27.9116,20.36,83,100,2.77,ZA,1739146447
285,roma,43.2128,-75.4557,-1.84,92,100,0.89,US,1739146222
286,mount gambier,-37.8333,140.7667,22.24,56,72,5.42,AU,1739146449
287,new norfolk,-42.7826,147.0587,18.29,41,23,2.15,AU,1739146451
288,kerikeri,-35.2268,173.9474,22.86,65,92,4.02,NZ,1739146452
289,bisingen,48.3101,8.9174,0.75,95,61,0.71,DE,1739146454
290,whitecourt,54.1502,-115.6855,-15.42,66,75,7.72,CA,1739146455
291,aripuana,-9.1667,-60.6333,22.98,98,91,0.92,BR,1739146456
292,sinabang,2.4803,96.3801,25.82,80,85,0.62,ID,1739146457
293,tindouf,27.6711,-8.1474,13.4,22,0,3.54,DZ,1739146458
294,happy valley-goose bay,53.3168,-60.3315,-18.75,78,100,4.0,CA,1739146459
295,sandnessjoen,66.0217,12.6316,3.06,87,75,1.54,NO,1739146460
296,nizhneangarsk,55.7833,109.55,-20.64,97,100,1.47,RU,1739146462
297,labuan bajo,-8.4964,119.8877,27.54,82,100,3.19,ID,1739146463
298,acarau,-2.8856,-40.12,26.35,80,100,5.29,BR,1739146465
299,northam,51.0333,-4.2167,4.89,86,91,3.13,GB,1739146466
300,springbok,-29.6643,17.8865,16.92,46,0,1.73,ZA,1739146467
301,kyren,51.6828,102.1408,-14.55,92,100,0.61,RU,1739146468
302,aykhal,66.0,111.5,-27.98,100,100,3.24,RU,1739146469
303,kon tum,14.35,108.0,14.12,84,98,0.78,VN,1739146471
304,al ghayzah,16.2079,52.176,19.75,81,0,1.2,YE,1739146473
305,coahuayana de hidalgo,18.7,-103.6583,27.96,55,0,2.09,MX,1739146474
306,coronado,32.6859,-117.1831,19.49,68,75,3.09,US,1739146225
307,raduzhny,62.0961,77.475,-1.95,97,100,3.68,RU,1739146476
308,villa hernandarias,-31.231,-59.985,34.27,20,88,3.3,AR,1739146477
309,florida,28.7505,-82.5001,20.0,77,0,0.0,US,1739146189
310,margate,51.3813,1.3862,5.49,81,100,1.34,GB,1739146212
311,utrik,11.2278,169.8474,26.96,82,5,6.63,MH,1739146480
312,abepura,-2.6333,140.5833,29.45,62,20,2.06,ID,1739146481
313,upington,-28.4478,21.2561,24.49,22,0,4.81,ZA,1739146482
314,tayshet,55.9342,98.0044,-10.23,87,100,5.76,RU,1739146483
315,weno,7.4515,151.8468,28.97,79,75,4.12,FM,1739146484
316,panacan,9.2463,118.4082,25.48,87,97,4.1,PH,1739146485
317,mar del plata,-38.0023,-57.5575,19.49,79,91,7.6,AR,1739146189
318,baikonur,45.6167,63.3167,-6.85,81,89,5.02,KZ,1739146489
319,mana,5.6592,-53.7767,25.1,84,100,4.08,GF,1739146490
320,gornopravdinsk,60.05,69.9,-1.92,93,100,4.1,RU,1739146491
321,haiku-pauwela,20.9219,-156.3051,26.79,65,20,8.75,US,1739146492
322,heihe,50.2441,127.4902,-20.68,96,100,1.4,CN,1739146493
323,sayat,38.7839,63.8803,-0.97,97,100,5.44,TM,1739146494
324,camana,-16.6228,-72.7111,23.29,89,98,1.58,PE,1739146214
325,sonoita,31.85,-112.8333,23.57,13,93,3.13,MX,1739146496
326,fang,19.9169,99.2145,14.9,96,12,0.06,TH,1739146497
327,vicuna,-30.0319,-70.7081,27.4,46,5,3.13,CL,1739146498
328,gaigeturi,33.4644,126.3183,5.64,57,100,5.99,KR,1739146499
329,tolanaro,-25.0319,46.9987,24.66,91,29,3.06,MG,1739146501
330,san jose del guaviare,2.5729,-72.6459,25.83,83,100,1.63,CO,1739146233
331,cidreira,-30.1811,-50.2056,24.82,86,17,4.32,BR,1739146211
332,elamanchili,17.55,82.8667,20.28,98,30,0.99,IN,1739146504
333,kavaratti,10.5669,72.642,26.82,73,27,3.52,IN,1739146505
334,bonthe,7.5264,-12.505,24.76,91,4,1.96,SL,1739146506
335,ta`u,-14.2336,-169.5144,28.75,76,47,7.32,AS,1739146507
336,santa rosalia,27.3167,-112.2833,20.83,39,44,2.27,MX,1739146508
337,freetown,8.484,-13.2299,24.79,86,6,2.95,SL,1739146510
338,buerarema,-14.9594,-39.2997,21.3,99,98,1.02,BR,1739146511
339,moab,38.5733,-109.5498,8.12,23,68,1.54,US,1739146514
340,perros-guirec,48.8145,-3.4396,4.61,81,94,4.18,FR,1739146515
341,minas de marcona,-15.2119,-75.1103,18.79,86,97,3.5,PE,1739146517
342,hluti,-27.2167,31.6167,18.83,86,56,2.15,SZ,1739146397
343,christiana,-27.914,25.1611,25.07,50,95,1.98,ZA,1739146519
344,rosenheim,47.8564,12.1225,-0.66,95,99,0.87,DE,1739146521
345,warwick,41.7001,-71.4162,-0.72,85,83,2.7,US,1739146523
346,qaqortoq,60.7167,-46.0333,-3.72,94,100,3.01,GL,1739146524
347,ugoofaaru,5.6667,73.0,27.25,73,100,6.84,MV,1739146526
348,brookings,44.3114,-96.7984,-7.75,75,0,3.09,US,1739146527
349,maputo,-25.9653,32.5892,25.02,71,63,6.94,MZ,1739146528
350,balqash,46.8481,74.995,-12.44,83,1,6.07,KZ,1739146293
351,polyarnyy,69.1989,33.4478,-4.14,86,29,13.05,RU,1739146531
352,i-n-salah,27.1935,2.4607,14.54,25,0,7.83,DZ,1739146532
353,okha,53.5739,142.9478,-18.32,96,70,5.57,RU,1739146533
354,port macquarie,-31.4333,152.9167,26.71,77,98,3.58,AU,1739146534
355,mandalgovi,45.7625,106.2708,-17.72,80,46,2.94,MN,1739146535
356,borba,-4.3878,-59.5939,23.79,97,97,1.0,BR,1739146536
357,dolinsk,47.35,142.8,-6.76,83,100,0.69,RU,1739146537
358,sansanne-mango,10.3592,0.4708,28.3,17,82,2.14,TG,1739146538
359,san-pedro,4.7485,-6.6363,25.54,91,100,1.46,CI,1739146539
360,ko pha ngan,9.7578,100.0291,23.91,67,53,5.16,TH,1739146541
361,eastham,41.8301,-69.9739,-0.99,85,100,1.34,US,1739146277
362,kolonia town,6.964,158.206,31.06,84,75,3.6,FM,1739146544
363,atafu village,-8.5421,-172.5159,28.55,73,12,5.82,TK,1739146545
364,algona,43.07,-94.233,-3.95,50,0,2.57,US,1739146546
365,lashio,22.9333,97.75,9.16,58,1,0.66,MM,1739146547
366,taquarituba,-23.5331,-49.2444,21.51,87,32,2.62,BR,1739145709
367,okhotsk,59.3833,143.3,-23.0,69,0,8.52,RU,1739146549
368,batalha,-9.6778,-37.1247,25.47,78,99,6.07,BR,1739146550
369,santa isabel,-23.3156,-46.2214,23.61,94,25,1.22,BR,1739146390
370,kavieng,-2.5744,150.7967,29.28,64,70,5.77,PG,1739146552
371,tonning,54.3167,8.95,2.37,87,100,7.07,DE,1739146554
372,afaahiti,-17.75,-149.2833,26.86,70,9,1.87,PF,1739146555
373,port douglas,-16.4833,145.4667,26.1,83,98,0.08,AU,1739146556
374,al hamul,31.3115,31.1477,10.62,82,90,2.97,EG,1739146557
375,darovskoy,58.77,47.9564,-5.15,93,100,2.61,RU,1739146558
376,coquimbo,-29.9533,-71.3436,19.85,70,0,3.6,CL,1739146396
377,adam,22.3756,57.5233,19.06,66,1,2.05,OM,1739146560
378,dakhla,23.6848,-15.958,17.01,78,1,8.49,EH,1739146561
379,hamilton,39.1834,-84.5333,2.09,75,100,2.57,US,1739146282
380,thomson,33.4707,-82.5046,22.39,80,50,2.96,US,1739146564
381,vorkuta,67.5,64.0,-6.83,94,100,7.85,RU,1739146565
382,gera,50.8803,12.0819,-1.34,89,91,0.87,DE,1739146567
383,gadani,25.1185,66.7299,20.78,75,98,3.66,PK,1739146568
384,tucuma,-0.1833,-50.05,23.62,96,100,2.03,BR,1739146569
385,sao felix do xingu,-6.6447,-51.995,21.57,99,100,0.43,BR,1739146570
386,tacuarembo,-31.7333,-55.9833,30.7,33,0,4.54,UY,1739146571
387,north branch,45.5113,-92.9802,-9.94,81,35,1.52,US,1739146572
388,nombre de dios,23.85,-104.2333,26.66,14,0,3.14,MX,1739146573
389,jaen,38.0,-3.5,6.86,68,84,0.4,ES,1739146574
390,lucas,41.6501,-83.6666,-2.73,72,100,0.45,US,1739146575
391,mabaruma,8.2,-59.7833,21.56,100,65,0.73,GY,1739146576
392,port saint john's,-31.6229,29.5448,19.96,97,100,0.71,ZA,1739146577
393,priargunsk,50.3691,119.1012,-39.2,100,57,0.23,RU,1739146578
394,reggane,26.7158,0.1714,15.33,21,0,5.58,DZ,1739146579
395,yemva,62.59,50.8594,-10.87,95,42,2.66,RU,1739146581
396,ar rass,25.8694,43.4973,10.41,37,72,3.73,SA,1739146582
397,malango,-2.9627,119.9001,21.7,85,100,1.19,ID,1739146584
398,quellon,-43.1167,-73.6167,17.27,98,97,4.82,CL,1739146586
399,howrah,22.5892,88.3103,16.0,88,0,0.0,IN,1739146587
400,dar kulayb,26.0686,50.5039,15.53,53,49,5.94,BH,1739146588
401,centenario do sul,-22.8211,-51.5953,25.09,64,31,1.75,BR,1739146589
402,prince rupert,54.3161,-130.3201,1.05,61,100,5.14,CA,1739146590
403,puerto santa,-8.9906,-78.6456,20.75,92,96,2.69,PE,1739146591
404,boke,10.9409,-14.2967,21.83,75,38,1.06,GN,1739146592
405,saint-pierre,-21.3393,55.4781,25.82,83,75,2.06,RE,1739146594
406,codrington,-38.2667,141.9667,20.79,65,100,7.74,AU,1739146595
407,hotan,37.0997,79.9269,-2.0,50,53,0.25,CN,1739146596
408,tyukhtet,56.5389,89.3011,-10.3,91,100,6.77,RU,1739146597
409,burley,42.5357,-113.7928,2.33,51,0,3.09,US,1739146595
410,altai,46.3722,96.2583,-15.05,53,100,5.11,MN,1739146599
411,undurkhaan,47.3194,110.6556,-23.4,96,21,0.63,MN,1739146600
412,paita,-5.0892,-81.1144,24.57,81,88,4.33,PE,1739146601
413,nizhneudinsk,54.9076,99.0276,-13.3,92,100,1.36,RU,1739146602
414,dalandzadgad,43.5708,104.425,-9.5,47,3,7.35,MN,1739146603
415,tralee,52.2704,-9.7026,5.01,93,93,3.13,IE,1739146604
416,rasht,37.2808,49.5832,-0.24,97,89,1.36,IR,1739146605
417,pacasmayo,-7.4006,-79.5714,24.02,77,86,4.62,PE,1739146606
418,hastings,50.8552,0.5729,5.86,66,100,5.18,GB,1739146607
419,beira,-19.8436,34.8389,26.43,90,55,2.64,MZ,1739146609
420,taro,-8.3862,115.28,21.95,92,100,1.49,ID,1739146610
421,port lincoln,-34.7333,135.8667,20.86,72,18,7.35,AU,1739146611
422,nagqu,31.5,92.0,-10.12,51,55,1.59,CN,1739146612
423,malvan,16.0667,73.4667,24.79,63,37,2.59,IN,1739146613
424,gulu,2.7746,32.299,23.01,50,43,1.91,UG,1739146615
425,kuanda,56.3161,116.0806,-37.27,98,79,0.72,RU,1739146617
426,banfora,10.6333,-4.7667,27.66,14,26,1.34,BF,1739146618
427,taroa,8.7058,171.2275,27.47,77,24,4.71,MH,1739146619
428,tagab,34.855,69.6492,3.72,90,100,1.04,AF,1739146620
429,bardai,11.65,7.2333,20.61,17,50,4.34,NG,1739146621
430,trinidad,-14.8333,-64.9,22.54,97,54,1.57,BO,1739146623
431,sitka,57.0531,-135.33,2.17,84,98,0.77,US,1739146517
432,fortuna,40.5982,-124.1573,10.75,67,0,7.2,US,1739146625
433,mitu,1.1983,-70.1733,22.83,97,100,1.38,CO,1739146539
434,berdigestyakh,62.0989,126.6992,-37.95,100,91,1.43,RU,1739146627
435,new plymouth,-39.0667,174.0833,22.4,100,96,3.43,NZ,1739146628
436,akureyri,65.6835,-18.0878,6.96,61,0,8.23,IS,1739146629
437,north bend,43.4065,-124.2243,9.02,66,0,7.2,US,1739146358
438,el tigre,8.8875,-64.2454,27.79,54,99,6.3,VE,1739146631
439,pacific grove,36.6177,-121.9166,13.56,71,0,4.47,US,1739146632
440,saint-philippe,-21.3585,55.7679,26.64,86,45,3.46,RE,1739146633
441,midvagur,62.0511,-7.1939,6.46,75,75,3.6,FO,1739146634
442,puerto aysen,-45.4,-72.7,13.74,100,100,3.34,CL,1739146564
443,nouadhibou,20.931,-17.0347,17.99,55,0,7.72,MR,1739146636
444,kruisfontein,-34.0033,24.7314,17.76,74,100,1.18,ZA,1739146638
445,hawaiian paradise park,19.5933,-154.9731,26.04,71,40,5.14,US,1739146639
446,belmonte,-15.8631,-38.8828,24.69,86,79,2.53,BR,1739146641
447,fuengirola,36.54,-4.6247,12.14,87,75,1.54,ES,1739146642
448,waingapu,-9.6567,120.2641,27.84,78,100,7.74,ID,1739146643
449,hohhot,40.8106,111.6522,-17.84,71,0,1.0,CN,1739146644
450,ust'-kut,56.7938,105.7672,-17.27,100,100,1.88,RU,1739146645
451,villa maria grande,-31.6656,-59.9018,33.95,20,13,4.05,AR,1739146646
452,vila velha,-20.3297,-40.2925,26.97,78,75,1.54,BR,1739146647
453,muriae,-21.1306,-42.3664,22.41,92,95,1.5,BR,1739146650
454,igrim,63.1906,64.4162,-2.84,79,100,4.93,RU,1739146651
455,kone,-21.0595,164.8658,23.92,97,100,0.95,NC,1739146652
456,zhigalovo,54.8097,105.1578,-17.09,100,100,0.77,RU,1739146653
457,mangrol,21.1167,70.1167,21.02,42,2,3.96,IN,1739146654
458,drahichyn,52.1874,25.1597,-3.93,64,0,2.78,BY,1739146655
459,effium,6.6292,8.0593,28.4,66,66,3.49,NG,1739146656
460,mozarlandia,-14.7447,-50.5706,22.23,84,100,2.01,BR,1739146657
461,roven'ky,48.0833,39.3776,-11.91,96,66,2.39,UA,1739146658
462,aquin,18.2833,-73.4,24.01,79,17,0.16,HT,1739146659
463,umm kaddadah,13.6017,26.6876,18.25,22,2,6.07,SD,1739146660
464,cataingan,12.003,123.992,24.95,89,100,7.36,PH,1739146662
465,inhambane,-23.865,35.3833,24.58,97,94,1.42,MZ,1739146663
466,lethem,3.3803,-59.7968,28.46,60,96,4.74,GY,1739146664
467,kuqa,41.7278,82.9364,-5.95,71,5,1.09,CN,1739146665
468,jumla,29.2747,82.1838,-0.39,52,0,2.66,NP,1739146666
469,souillac,-20.5167,57.5167,26.21,83,20,1.54,MU,1739146667
470,ar ruways,24.1103,52.7306,15.86,69,29,5.82,AE,1739146668
471,rehoboth,-23.3167,17.0833,23.81,61,100,1.21,NA,1739146669
472,hailey,43.5196,-114.3153,-3.95,63,75,4.63,US,1739146670
473,sitia,35.2,26.0986,9.98,66,84,12.97,GR,1739146671
474,nar'yan-mar,67.6713,53.087,-5.09,89,100,8.24,RU,1739146672
475,jakobstad,63.6749,22.7026,-2.91,91,6,5.71,FI,1739146673
476,richlands,37.0932,-81.7937,1.67,78,61,1.63,US,1739146674
477,glencoe,-28.1783,30.147,17.17,97,100,0.79,ZA,1739146550
478,pemba,-12.974,40.5178,26.39,94,75,1.75,MZ,1739146677
479,ozd,48.2167,20.3,3.14,57,100,0.27,HU,1739146678
480,pingliang,35.5392,106.6861,-1.97,56,5,1.95,CN,1739146679
481,chonchi,-42.6128,-73.8092,18.4,99,100,4.5,CL,1739146680
482,tefe,-3.3542,-64.7114,22.91,99,100,1.05,BR,1739146681
483,lander,42.833,-108.7307,-0.55,24,0,3.09,US,1739146475
484,ha'il,27.5219,41.6907,6.01,42,0,2.06,SA,1739146683
485,alto barinas,8.5931,-70.2261,31.16,38,62,1.76,VE,1739146684
486,anyama,5.4946,-4.0518,24.45,86,97,1.47,CI,1739146686
487,suntar,62.1444,117.6319,-29.09,96,100,2.19,RU,1739146687
488,ikirun,7.9167,4.6667,25.17,77,39,2.22,NG,1739146688
489,yuzhno-kurilsk,44.0306,145.8556,-2.27,82,100,9.18,RU,1739146689
490,dhar,22.6,75.3,19.31,39,5,1.21,IN,1739146690
491,taltal,-25.4,-70.4833,20.18,86,41,0.4,CL,1739146221
492,rumonge,-3.9736,29.4386,24.15,70,3,1.13,BI,1739146692
493,zheshart,62.0731,49.5733,-7.73,97,87,3.01,RU,1739146693
494,butte,39.6499,-121.5677,14.01,31,0,4.12,US,1739146694
495,bhadasar,28.2833,74.3167,16.7,16,18,1.95,IN,1739146695
496,sisimiut,66.9395,-53.6735,-21.78,99,99,3.63,GL,1739146696
497,karasuk,53.7377,78.0403,-9.99,98,93,3.58,RU,1739146697
498,nieuw amsterdam,5.8833,-55.0833,24.87,85,84,4.71,SR,1739146698
499,mafinga,-7.25,35.0667,18.31,97,57,1.6,TZ,1739146699
500,asubulaq,49.5583,83.0558,-18.78,99,98,2.08,KZ,1739146701
501,arno,60.1167,18.6333,-2.02,91,7,1.34,SE,1739146702
502,guatrache,-37.6678,-63.5302,29.69,41,66,5.02,AR,1739146703
503,lycksele,64.5954,18.6735,-5.07,93,16,3.09,SE,1739146704
504,le treport,50.0598,1.3758,5.21,87,100,3.95,FR,1739146705
505,tynda,55.1667,124.7167,-32.3,98,100,0.94,RU,1739146706
506,atbasar,51.8,68.3333,-14.97,96,7,1.64,KZ,1739146707
507,acapulco de juarez,16.8634,-99.8901,27.9,69,0,4.12,MX,1739146708
508,san vicente,-26.6167,-54.1333,22.3,74,76,1.31,AR,1739146709
509,qamdo,31.1667,97.2333,-6.4,89,99,0.44,CN,1739146710
510,cabedelo,-6.9811,-34.8339,25.37,69,99,5.89,BR,1739146452
511,tatsinskiy,48.1968,41.2756,-9.31,96,86,2.29,RU,1739146714
512,san rafael del yuma,18.4299,-68.6739,23.11,82,0,4.25,DO,1739146715
513,kingston,17.997,-76.7936,27.53,65,20,4.12,JM,1739146420
514,cururupu,-1.8283,-44.8683,22.78,100,98,0.36,BR,1739146717
515,greenland,43.0362,-70.8328,-1.75,82,100,2.48,US,1739146718
516,chegdomyn,51.1167,133.0167,-18.42,94,100,0.26,RU,1739146719
517,yaren,-0.5472,166.916,26.33,74,26,4.54,NR,1739146720
518,bataipora,-22.2953,-53.2711,25.82,60,18,2.37,BR,1739146721
519,kalaleh,37.3807,55.4916,-0.22,100,100,0.0,IR,1739146722
520,long beach,33.767,-118.1892,19.47,58,0,6.69,US,1739146254
521,popondetta,-8.7537,148.2534,27.33,88,99,1.4,PG,1739146724
522,komsomolets,53.7453,62.0708,-11.65,96,55,2.36,KZ,1739146726
523,mananjary,-21.2167,48.3333,24.85,90,96,1.49,MG,1739146727
524,yuci,37.6803,112.7319,-10.14,57,0,1.0,CN,1739146729
525,nadvoitsy,63.8667,34.3167,-7.39,92,90,4.44,RU,1739146731
526,calderitas,18.55,-88.25,27.06,78,75,3.09,MX,1739146733
527,marlborough,-41.6667,173.5,22.13,51,83,1.67,NZ,1739146639
528,lincoln,40.8,-96.667,1.83,50,0,1.34,US,1739146395
529,sumbe,-11.2061,13.8437,25.88,86,80,2.07,AO,1739146737
530,khabary,53.6259,79.5345,-12.43,100,99,3.52,RU,1739146738
531,cherepanovo,54.2222,83.381,-9.92,96,99,4.43,RU,1739146739
532,colonia,50.9333,6.95,2.92,88,96,1.41,DE,1739146559
533,barra de santo antonio,-9.4047,-35.5072,26.3,74,94,4.07,BR,1739146741
534,rosiorii de vede,44.1167,24.9833,-2.7,49,0,2.18,RO,1739146743
535,bonanza,14.0289,-84.591,21.47,90,81,1.38,NI,1739146744
536,singaparna,-7.3515,108.111,23.4,89,100,0.45,ID,1739146747
537,pariaman,-0.619,100.12,24.03,80,91,2.15,ID,1739146748
538,oliver,49.1831,-119.5524,-0.05,40,16,4.63,CA,1739146749
539,manay,7.215,126.5397,25.75,82,99,2.3,PH,1739146750
540,sabha,27.0377,14.4283,11.43,48,0,3.71,LY,1739146751
541,puerto colombia,10.9878,-74.9547,26.05,82,48,12.98,CO,1739146752
542,patnanungan,14.7833,122.1833,24.47,89,100,9.81,PH,1739146753
543,pozarevac,44.6153,21.1825,-1.05,54,100,4.76,RS,1739146754
544,la mira,18.035,-102.3266,28.34,52,0,4.32,MX,1739146755
545,szubin,53.0097,17.74,-1.05,74,0,4.63,PL,1739146759
546,alaghsas,17.0187,8.0168,22.45,18,30,6.4,NE,1739146760
547,egilsstadir,65.2653,-14.3948,6.95,65,0,6.69,IS,1739146761
548,pangkalanbuun,-2.6833,111.6167,25.1,90,100,1.1,ID,1739146762
549,xiuyan,40.2928,123.2744,-12.01,66,44,0.45,CN,1739146763
550,cromer,52.9312,1.2989,5.08,83,100,9.84,GB,1739146764
551,miles city,46.4083,-105.8406,-13.46,72,0,2.57,US,1739146765
552,siavonga,-16.5382,28.7088,23.24,83,98,1.42,ZM,1739146752
553,batie,9.8833,-2.9167,27.55,15,39,1.45,BF,1739146767
554,eshowe,-28.8865,31.4699,18.45,93,100,1.94,ZA,1739146769
555,tual,-5.6667,132.75,28.91,83,100,8.25,ID,1739146770
556,mancio lima,-7.6142,-72.8958,24.04,100,75,0.0,BR,1739146772
557,beloyarskiy,63.7119,66.6722,-7.91,95,100,2.79,RU,1739146773
558,nadi,-17.8,177.4167,32.0,66,40,3.09,FJ,1739146775
559,lichuan,30.3,108.85,-0.94,72,7,0.9,CN,1739146777
